{
    "features":[
    {
        "Name": "Renew Vitality Testosterone Clinic of Los Angeles",
        "Address": "9301 Wilshire Blvd ste 404, Beverly Hills, CA 90210",
        "Phone": "(323) 672-3050",
        "Website": "https:\/\/www.vitalityhrt.com\/",
        "Google Rating (out of 5)": 5,
        "Number of reviews": 48,
        "lat": 34.015776,
        "lng": -118.4976183
        },
        {
        "Name": "Testosterone Replacement Therapy: Dr. Christopher Asandra",
        "Address": "150 N Robertson Blvd #250N, Beverly Hills, CA 90211",
        "Phone": "(424) 542-8881",
        "Website": "https:\/\/www.asandramd.com\/",
        "Google Rating (out of 5)": 4.8,
        "Number of reviews": 50,
        "lat": 34.1573654,
        "lng": -118.4927387
        },
        {
        "Name": "Ageless Men's Health",
        "Address": "11633 San Vicente Blvd #214, Los Angeles, CA 90049",
        "Phone": "(310) 979-8378",
        "Website": "https:\/\/www.agelessmenshealth.com\/",
        "Google Rating (out of 5)": 5,
        "Number of reviews": 1,
        "lat": 34.1710478,
        "lng": -118.5421538
        },
        {
        "Name": "Thrive Men's Clinic | Testosterone Replacement Therapy (TRT)",
        "Address": "18740 Ventura Blvd #101, Tarzana, CA 91356",
        "Phone": "(818) 906-8888",
        "Website": "https:\/\/www.mensthrive.com\/",
        "Google Rating (out of 5)": 5,
        "Number of reviews": 154,
        "lat": 34.1629825,
        "lng": -118.2556632
        },
        {
        "Name": "EHormones MD - Los Angeles",
        "Address": "12340 Santa Monica Blvd Suite 302, Los Angeles, CA 90025",
        "Phone": "(310) 295-1882",
        "Website": "https:\/\/ehormones.com\/",
        "Google Rating (out of 5)": 4.9,
        "Number of reviews": 18,
        "lat": 33.8725843,
        "lng": -118.365233
        },
        {
        "Name": "The Man Clinic",
        "Address": "2512 Artesia Blvd #165, Redondo Beach, CA 90278",
        "Phone": "(310) 413-1771",
        "Website": "http:\/\/www.manclinics.com\/",
        "Google Rating (out of 5)": 5,
        "Number of reviews": 15,
        "lat": 34.0683124,
        "lng": -118.383356
        },
        {
        "Name": "Gent's Doctor Menâ€™s Health Clinic in Beverly Hills",
        "Address": "1125 S Beverly Dr Suite 420, Los Angeles, CA 90035",
        "Phone": "(424) 284-6760",
        "Website": "https:\/\/www.gentsdoctor.com\/",
        "Google Rating (out of 5)": 3.2,
        "Number of reviews": 24,
        "lat": 34.03906,
        "lng": -118.4659797
        },
        {
        "Name": "The HOT Clinic",
        "Address": "16500 Ventura Blvd Suite 420, Encino, CA 91436",
        "Phone": "(818) 646-0259",
        "Website": "https:\/\/www.thehotclinic.com\/",
        "Google Rating (out of 5)": 3.4,
        "Number of reviews": 5,
        "lat": 34.0568453,
        "lng": -118.3969146
        },
        {
        "Name": "Health and Hormone Clinic in Santa Monica",
        "Address": "1333 2nd St, Santa Monica, CA 90401",
        "Phone": "(626) 375-4216",
        "Website": "http:\/\/santa-monica.hormone-clinic.com\/",
        "Google Rating (out of 5)": 5,
        "Number of reviews": 1,
        "lat": 34.067367,
        "lng": -118.3946756
        },
        {
        "Name": "Androgenix Health",
        "Address": "1141 N Brand Blvd #302, Glendale, CA 91202",
        "Phone": "(818) 549-0977",
        "Website": "http:\/\/www.androgenixhealth.com\/",
        "Google Rating (out of 5)": 4.5,
        "Number of reviews": 4,
        "lat": 34.0543138,
        "lng": -118.4630705
    }

    ]
}